{"_db_id": "d4bcbdea-5a6a-4464-ad7e-cc39f59e4dae", "_db_table": "centers", "_db_name": "Pranic Healing Hawai\u2018i Inc.", "_match_reason": "website_exact", "_gm_place_id": "ChIJ4V1AjsQVAHwRaQYccQaHfWI", "phone": "8084300428"}
{"_db_id": "02b91565-74b4-4155-8375-b43966a54f56", "_db_table": "practitioners", "_db_name": "Hawaii Natural Medicine", "_match_reason": "name_fuzzy(88%)", "_gm_place_id": "ChIJd6Ro9rJjAHwRwZ_Lzmdi4As", "city": "Kapolei", "lat": 21.3217219, "lng": -158.0896545}
{"_db_id": "d84996c1-bc41-480e-908a-1919c16187aa", "_db_table": "practitioners", "_db_name": "Dr. Antonio Provencio DAOM", "_match_reason": "website_exact", "_gm_place_id": "ChIJSd63OpJlAHwRnyRVLY2h92s", "city": "Honolulu", "lat": 21.2958227, "lng": -157.85249389999998}
{"_db_id": "77f461c3-8e17-497a-9e91-23a8bd082920", "_db_table": "practitioners", "_db_name": "Dr. Jang Acupuncture Clinic", "_match_reason": "website_exact", "_gm_place_id": "ChIJcw1l-PFtAHwRfkh5gbBBl3M", "city": "Honolulu", "lat": 21.292049, "lng": -157.83916739999998}
{"_db_id": "83279e50-670a-423b-bcfa-e603be1f563b", "_db_table": "centers", "_db_name": "Hawaii Hypnosis Center & Relationship Coaching", "_match_reason": "phone_exact", "_gm_place_id": "ChIJb_ngEu5tAHwRirFQzPz8QQk", "lat": 21.310985199999998, "lng": -157.8555993}
{"_db_id": "c8251264-3d2d-4a1b-9451-84d8934cfacf", "_db_table": "practitioners", "_db_name": "Leah Lau Karp, DPT - Physio Wellness", "_match_reason": "website_exact", "_gm_place_id": "ChIJC5p-OqqWsS8RMsZDXLgX-xw", "phone": "8082161881", "address": "408 Uluniu St, Kailua, HI 96734, USA", "lat": 21.396587099999998, "lng": -157.74362}
{"_db_id": "257d7bee-5f97-45a7-998a-9a8c5cdfff30", "_db_table": "practitioners", "_db_name": "Cristal Mortensen", "_match_reason": "phone_exact", "_gm_place_id": "ChIJEcMaznxyAHwRu-KrQrNPgB8", "address": "3671 Diamond Head Cir, Honolulu, HI 96815, USA", "city": "Honolulu", "lat": 21.2669528, "lng": -157.81300729999998}
{"_db_id": "9d074b8e-51df-426a-adb8-b1c611b229c9", "_db_table": "practitioners", "_db_name": "Amy Tousman", "_match_reason": "website_exact", "_gm_place_id": "ChIJBQDXH9wUAHwRj0K2llw8KQY", "phone": "8083983813", "lat": 21.3974564, "lng": -157.74231}
{"_db_id": "77f461c3-8e17-497a-9e91-23a8bd082920", "_db_table": "practitioners", "_db_name": "Dr. Jang Acupuncture Clinic", "_match_reason": "name_fuzzy(90%)", "_gm_place_id": "ChIJD4-PHvVnAHwRmtUVBFX8bBs", "city": "Waipahu", "lat": 21.4209836, "lng": -158.00481539999998}
{"_db_id": "77f461c3-8e17-497a-9e91-23a8bd082920", "_db_table": "practitioners", "_db_name": "Dr. Jang Acupuncture Clinic", "_match_reason": "name_fuzzy(85%)", "_gm_place_id": "ChIJTU9ohfJtAHwRCtlHRchiFdA", "city": "Honolulu", "lat": 21.2913781, "lng": -157.835648}
